{"type":"FeatureCollection","features":[{"type":"Feature","properties":{"name":"Owlery","level":1,"desc":"Pick up all your letters, parcels, and howlers here, home of Baranof Island's best-trained owls. Mon - Sat 9 am - 3 pm."},"geometry":{"type":"Point","coordinates":[-135.316413,57.052351]}},{"type":"Feature","properties":{"name":"Ollivander's Wand Shop","level":1,"desc":"Take a walk through Ollivander's shop and let the wand choose you."},"geometry":{"type":"Point","coordinates":[-135.317235,57.046333]}},{"type":"Feature","properties":{"name":"The Daily Prophet","level":1,"desc":"Run by one of the oldest Wizarding families on Baranof Island and with strong ties to the Ministry of Magic."},"geometry":{"type":"Point","coordinates":[-135.337181,57.050332]}},{"type":"Feature","properties":{"name":"Flourish & Blotts","level":1,"desc":"The best place for Hogwarts students to purchase their schoolbooks, ask for Irma Pince Saturdays 1-6 pm. Beware the monster book of monsters! Purchasing books via owl delivery also available."},"geometry":{"type":"Point","coordinates":[-135.32296,57.05024]}},{"type":"Feature","properties":{"name":"Madam Malkin's Robes For All Occasions","level":2,"desc":"Fine selection of wizard and witch dress robes, traveling cloaks, and, if you can find it, an invisibility cloak. Also a selection of muggle clothes for special occasions. Regular hours Mon 6 - 8 pm Thurs Noon to 3 pm Sat Noon to 3 pm."},"geometry":{"type":"Point","coordinates":[-135.334823,57.051134]}},{"type":"Feature","properties":{"name":"Ministry of Magic","level":1,"desc":"Run by Marcus Gourmet Fudge, but don't let the muggle offices fool you, there is a vast floo network in the bathrooms on the 3rd floor."},"geometry":{"type":"Point","coordinates":[-135.338748,57.04894]}},{"type":"Feature","properties":{"name":"Wizarding Wireless Network","level":1,"desc":"Featuring music programs like \"The Witching Hour\" and news bulletins for the wizarding world, the Cable House has been charmed to appear as a coffee shop."},"geometry":{"type":"Point","coordinates":[-135.339332,57.048586]}},{"type":"Feature","properties":{"name":"Forbidden Forest","level":1,"desc":"An ancient forest that holds many secrets and creatures, some dark and dangerous, others friendly. Off-limits to students except in the case of detention or Care of Magical Creatures lessons."},"geometry":{"type":"Point","coordinates":[-135.317542,57.05005]}},{"type":"Feature","properties":{"name":"Quidditch Pitch","level":2,"desc":"If interested in Quidditch tryouts, find 7th year Quidditch Hufflepuff Captain Davidagog Kreissbridge-Tompkmycus and ask him when Quidditch practice is."},"geometry":{"type":"Point","coordinates":[-135.323642,57.050967]}},{"type":"Feature","properties":{"name":"Madam Primpernelle's Beautifying Potions","level":3,"desc":"This store specializes in helping witches get rid of warts and worse."},"geometry":{"type":"Point","coordinates":[-135.331766,57.051366]}},{"type":"Feature","properties":{"name":"Fortescue's Ice Cream Parlour","level":3,"desc":"Try our newest flavor: Butterbeer!"},"geometry":{"type":"Point","coordinates":[-135.338072,57.049137]}},{"type":"Feature","properties":{"name":"Quality Quidditch Supplies","level":2,"desc":"Upset your 'Reparo' charm isn't working? Come in today and get 25% off a broomstick repair kit."},"geometry":{"type":"Point","coordinates":[-135.336034,57.0496]}},{"type":"Feature","properties":{"name":"The Leaky Cauldron","level":2,"desc":"A popular wizarding pub and inn. The gateway between the non-wizarding world and Diagon Alley."},"geometry":{"type":"Point","coordinates":[-135.332207,57.051244]}},{"type":"Feature","properties":{"name":"Potage's Cauldron Shop","level":2,"desc":"Sells all sizes of all types of cauldrons: copper, brass, pewter, silver, self-stirring, and collapsable."},"geometry":{"type":"Point","coordinates":[-135.332742,57.051487]}},{"type":"Feature","properties":{"name":"Auror Training Academy","level":2,"desc":"A 3-year stringent program for only the best and brightest wizards and witches. Currently accepting volunteers over the age of 17 to endure the imperius curse and subsequently perform a variety of field tests."},"geometry":{"type":"Point","coordinates":[-135.321047,57.054647]}},{"type":"Feature","properties":{"name":"Twilfitt and Tatting's","level":2,"desc":"A wizarding clothing shop preferred by upperclass Slytherins."},"geometry":{"type":"Point","coordinates":[-135.337415,57.049331]}},{"type":"Feature","properties":{"name":"Great Lake","level":4,"desc":"Don't swim in it! Ellenissa Chenophadoran once got attacked by merpeople!"},"geometry":{"type":"Point","coordinates":[-135.33757209777832,57.05747809407828]}},{"type":"Feature","properties":{"name":"Scribbulus Writing Instruments","level":3,"desc":"Sells quills, color-changing ink, and parchment."},"geometry":{"type":"Point","coordinates":[-135.333748,57.050398]}},{"type":"Feature","properties":{"name":"Rosa Lee Teabag","level":3,"desc":"Hope you don't see the Grim at the bottom of your cup in this tea shop!"},"geometry":{"type":"Point","coordinates":[-135.336958,57.049925]}},{"type":"Feature","properties":{"name":"Obscurus Books","level":3,"desc":"Wizarding book publisher with a range of titles including <i>Fantastic Beasts and Where to Find Them</i>. Also tickets sold here to all wizarding events, such as the Quidditch Cup. Tickets for Platform 9 3/4 are sold here for 1 Galleon. Current 9 3/4 ticket purchasing hours are Saturdays 10-5."},"geometry":{"type":"Point","coordinates":[-135.336889,57.049803]}},{"type":"Feature","properties":{"name":"Magical Menagerie","level":1,"desc":"Come get whatever pet you need! We sell poisonous orange snails, a giant jewel-encrusted tortoise, sleek black rats that are very intelligent, owls, ravens, cats of every color."},"geometry":{"type":"Point","coordinates":[-135.30537217855453,57.04750299558726]}},{"type":"Feature","properties":{"name":"Junk Shop","level":1,"desc":"A shop that sells items such as broken wands, lopsided scales, etc."},"geometry":{"type":"Point","coordinates":[-135.30836820602417,57.05035371397319]}},{"type":"Feature","properties":{"name":"Secondhand Robe Shop","desc":"Vintage clothes are all the rage these days. Come in and buy some robes that are hip <i>and</i> cheap.","level":3},"geometry":{"type":"Point","coordinates":[-135.33523052930832,57.04975411840096]}},{"type":"Feature","properties":{"level":3,"name":"Sugarplum's Sweet Shop","desc":"This shop sells magical sweets like Cauldron Cakes, Liquorice Wands, and Pumpkin Pasties."},"geometry":{"type":"Point","coordinates":[-135.3383499383926,57.04909032125768]}},{"type":"Feature","properties":{"name":"Slug & Jiggers Apothecary","level":3,"desc":"Established in 1207, we are the oldest apothecary this side of the Great Dragon's Maw. We have every potion to suit your needs, from Essence of Dittany to Wiggenwald Potion."},"geometry":{"type":"Point","coordinates":[-135.33480405807492,57.05168416884448]}},{"type":"Feature","properties":{"name":"I <img class='emoji' title=':heart:' alt=':heart:' src='https://assets.github.com/images/icons/emoji/unicode/2764.png' height='20' width='20' align='absmiddle'> Hogwarts!","level":3,"desc":"You love Hogwarts?? So do we! Come in and get Hogwarts paraphenilia of all kinds!"},"geometry":{"type":"Point","coordinates":[-135.3325778245926,57.051132736096186]}},{"type":"Feature","properties":{"name":"Broomstix","level":1,"desc":"Disguised as a muggle convenience store, the broom selection is larger than it appears to be."},"geometry":{"type":"Point","coordinates":[-135.33012360334396,57.0528570303167]}},{"type":"Feature","properties":{"name":"Borgin and Burkes","level":1,"desc":"Dealers of unusual and ancient wizarding artifacts and antiques. Come get your human bones, glass eyes, spiked instruments, cursed necklaces, and packs of bloody cards."},"geometry":{"type":"Point","coordinates":[-135.3399458527565,57.05043249223396]}},{"type":"Feature","properties":{"name":"The White Wyvern","level":3,"desc":"A pub not for the weak-hearted, currently on tap: Bludd's Blood Ale."},"geometry":{"type":"Point","coordinates":[-135.34029990434647,57.050559412413705]}},{"type":"Feature","properties":{"name":"Markus Scarrs Indelible Tattoos","level":3,"desc":"A wizarding tattoo parlour. Get your house mascot emblazoned on your arm for life."},"geometry":{"type":"Point","coordinates":[-135.33633291721344,57.049306238993054]}},{"type":"Feature","properties":{"name":"Gringott's Wizarding Bank","level":1,"desc":"Operated by goblins. Go here to exchange muggle money for galleons. You must ask to access your vault otherwise they'll think you're a muggle. Wizard-banking hours are Wednesday through Friday 2:00-5:30 pm."},"geometry":{"type":"Point","coordinates":[-135.3364133834839,57.05370893631908]}},{"type":"Feature","properties":{"name":"Beard Trimming","level":3,"desc":"Podric Batworthy The XXIII's Beard Trimming at low cost."},"geometry":{"type":"Point","coordinates":[-135.34007728099823,57.05014655552696]}}]}